[{"id":"16X8g1YkYnld38Fmm6X6","name":"Ristorante Al Caratello","_search":"al caratello","geohash":"u09wj5m10s","address":"5 rue Audran, 75018 Paris France","geolocation":{"latitude":48.885235,"longitude":2.335995}},{"id":"1mRG48LvLyVHhUEgkAl7","name":"A test ","geohash":"7zzzzzzzzz","address":"kkkk","geolocation":null},{"id":"1p9FGXROhru7HeSQ4gRf","name":"L'As du Fallafel","_search":"as du fallafel$$l'as du fallafel","geohash":"u09tvwjyc4","address":"34 rue des Rosiers, 75004 Paris France","geolocation":{"latitude":48.857372,"longitude":2.359024}},{"id":"44G8vWtY5KXfKW03JgE0","name":"Le Plomb du Cantal","_search":"le plomb du cantal","geohash":"u09tught6q","address":"3 rue de la Gaite, 75014 Paris France","geolocation":{"latitude":48.84066,"longitude":2.324393}},{"id":"5QcD7ZG2O09zZjAAQQOZ","name":"Eataly Paris Marais","_search":"eataly paris marais","geohash":"7zzzzzzzzz","address":"","geolocation":null},{"id":"BVALQRctpvDQNxRNeDKq","name":"Le Train Bleu","_search":"le train bleu","address":"Place Louis Armand Gare de Lyon, 75012 Paris France","geolocation":null},{"id":"C7ccH7GQ5FxaNVgRgmX3","name":"La Coupole","_search":"la coupole","geohash":"u09tugrpp2","address":"102 Boulevard du Montparnasse 75014 Paris France","geolocation":null},{"id":"D6etq79VctoJISiIYm2h","name":"Dans Le Noir ?","_search":"dans le noir ?","geohash":"u09tvqzwj9","address":"51 rue Quincampoix, 75004 Paris France","geolocation":{"latitude":48.861359,"longitude":2.350626}},{"id":"EYGYHeoZAsKiAZNQrFQg","name":"Chez Paul","_search":"chez paul","geohash":"u09tyj3h90","address":"13 rue de Charonne, 75011 Paris France","geolocation":{"latitude":48.852856,"longitude":2.374473}},{"id":"Gl3OEMyUOZMrFf1dut5P","name":"Le Saint Régis","_search":"le saint régis$$le saint regis","geohash":"u09tvt3uc3","address":"6 rue Jean du Bellay, 75004 Paris France","geolocation":{"latitude":48.852905,"longitude":2.353532}},{"id":"KWYPA30MZ5eh99TZ5bUf","name":"Au Pied de Cochon","_search":"au pied de cochon","geohash":"u09tvr69cv","address":"6 rue Coquilliere, 75001 Paris France","geolocation":{"latitude":48.863396,"longitude":2.343603}},{"id":"Mx9PKuPyYhYmH3cQd6ju","name":"Fondue 9(蜀9香)","_search":"fondue 9$$蜀9香","geohash":"u09tvb2tgh","address":"93 Rue Baudricourt, 75013 Paris","geolocation":{"latitude":48.8256272,"longitude":2.3628853}},{"id":"V3NWI85wgbYk49Lqzymi","name":"Papa Poule","_search":"papa poule","geohash":"7zzzzzzzzz","address":"","geolocation":null},{"id":"Wk1Cf0pNnFqNT4zEGtV3","name":"Restaurant Polidor","_search":"polidor","geohash":"u09tvhzgmu","address":"41 rue Monsieur le Prince, 75006 Paris France","geolocation":{"latitude":48.849918,"longitude":2.34}},{"id":"XrKWpOKdnElNheAMC3jC","name":"Il était un square","_search":"il était un square$$il etait un square","geohash":"u09tv3mue3","address":"54 rue Corvisart, 75013 Paris France","geolocation":{"latitude":48.830891,"longitude":2.348131}},{"id":"ZDKCQ6Mt0a4SVBAz4sH7","name":"Le Procope","_search":"le procope","geohash":"u09tvjrjsj","address":"13 Rue De L'ancienne Comédie, 75006 Paris France","geolocation":{"latitude":48.853054,"longitude":2.338896}},{"id":"afIBI7JVOQXI4NlyKhK4","name":"Le Relais de Venise","_search":"le relais de venise","geohash":"u09w5czz1r","address":"271 boulevard Pereire, 75017 Paris France","geolocation":{"latitude":48.878044,"longitude":2.284874}},{"id":"beuI5VhLIYUWJzLa27pg","name":"Benoit","_search":"benoit","geohash":"u09tvqrj5b","address":"20 rue Saint Martin, 75004 Paris France","geolocation":{"latitude":48.858433,"longitude":2.349866}},{"id":"dK0ICZb9F3zCwdbV8b8n","name":"Ciel de Paris","_search":"ciel de paris","geohash":"u09tug6z2c","address":"33 avenue du Maine 56th Floor, 75015 Paris France","geolocation":{"latitude":48.84235,"longitude":2.321931}},{"id":"e2EyRRSXhdm6jwp5beLK","name":"Kong","_search":"kong","geohash":"u09tvqd4py","address":"1 rue du Pont Neuf, 75001 Paris France","geolocation":{"latitude":48.859325,"longitude":2.343171}},{"id":"e70uHIqQOzkgfPhI73SG","name":"Le Petit Châtelet","_search":"le petit chatelet","geohash":"u09tvmm5mm","address":"39 rue de la Bucherie, 75005 Paris France","geolocation":{"latitude":48.852669,"longitude":2.347182}},{"id":"fyVuiGcRJNko4vtGklWT","name":"Brasserie Lazare Paris","_search":"brasserie lazare paris","geohash":"u09whct7gj","address":"Rue Intérieure Forecourt of the Station Saint Lazare, 75008 Paris France","geolocation":{"latitude":48.876099,"longitude":2.325457}},{"id":"gCG177iSXa6GvvOjihrB","name":"Café de la Paix","_search":"café de la paix$$cafe de la paix","geohash":"u09wj0dhfq","address":"5 Place de l'Opéra, 75009 Paris France","geolocation":null},{"id":"kdzSscR2PF6YVcI4jsyu","name":"Sacrée Fleur","_search":"sacrée fleur$$sacree fleur","geohash":"u09wj7twev","address":"50 Rue de Clignancourt, 75018 Paris France","geolocation":{"latitude":48.887558,"longitude":2.347809}},{"id":"p6b0Z0KCS42ctkipJGZZ","name":"La Crêperie de Josselin","_search":"la crêperie de josselin$$la creperie de josselin","geohash":"u09wkbhyqy","address":"67 rue du Montparnasse, 75014 Paris France","geolocation":{"latitude":48.912243,"longitude":2.324933}},{"id":"pJd4aTt1tIZ82C2DOqvI","name":"Le Bouillon Chartier","_search":"le bouillon chartier","address":"7 Rue du Faubourg Montmartrei Metro Grands Boulevards, 75009 Paris France","geolocation":null},{"id":"r0RsvXODlu79ktcIflhR","name":"Ladurée","_search":"laduree$$ladurée","geohash":"u09wh2thfr","address":"75 avenue des Champs Elysees, 75008 Paris France","geolocation":{"latitude":48.870792,"longitude":2.303116}},{"id":"tlTvAOWbBCd1ReKR0DFM","name":"L'Européen","_search":"leuropeen$$l'européen","geohash":"u09tvupfd9","address":"21 B boulevard Diderot, 75012 Paris France","geolocation":{"latitude":48.84565,"longitude":2.372817}}]
